{
"type": "FeatureCollection",
"name": "frontex_grants_countries_total_centroid",
"features": [
{ "type": "Feature", "properties": { "name": "Albania", "eur": 5853197.6 }, "geometry": { "type": "Point", "coordinates": [ 20.051845908169845, 41.134873688855151 ] } },
{ "type": "Feature", "properties": { "name": "Austria", "eur": 76255605.85 }, "geometry": { "type": "Point", "coordinates": [ 14.110430066704872, 47.592293442958741 ] } },
{ "type": "Feature", "properties": { "name": "Belgium", "eur": 20397925.59 }, "geometry": { "type": "Point", "coordinates": [ 4.647831247979786, 50.639131003593349 ] } },
{ "type": "Feature", "properties": { "name": "Bulgaria", "eur": 22073028.27 }, "geometry": { "type": "Point", "coordinates": [ 25.20913262377168, 42.771241049789751 ] } },
{ "type": "Feature", "properties": { "name": "Bosnia and Herzegovina", "eur": 140914.0 }, "geometry": { "type": "Point", "coordinates": [ 17.774891569057456, 44.171474332882198 ] } },
{ "type": "Feature", "properties": { "name": "Belarus", "eur": 113591.46 }, "geometry": { "type": "Point", "coordinates": [ 28.014955094802591, 53.519520557039584 ] } },
{ "type": "Feature", "properties": { "name": "Switzerland", "eur": 13789315.02 }, "geometry": { "type": "Point", "coordinates": [ 8.206281998124156, 46.79889642719673 ] } },
{ "type": "Feature", "properties": { "name": "Cape Verde", "eur": 7140.88 }, "geometry": { "type": "Point", "coordinates": [ -23.95654402265782, 15.953305515838585 ] } },
{ "type": "Feature", "properties": { "name": "Cyprus", "eur": 1260395.39 }, "geometry": { "type": "Point", "coordinates": [ 33.005810304622038, 34.917087338078836 ] } },
{ "type": "Feature", "properties": { "name": "Czech Republic", "eur": 18717826.97 }, "geometry": { "type": "Point", "coordinates": [ 15.319440709960471, 49.737996681280357 ] } },
{ "type": "Feature", "properties": { "name": "Germany", "eur": 263911907.31 }, "geometry": { "type": "Point", "coordinates": [ 10.364371589292617, 51.050577200391949 ] } },
{ "type": "Feature", "properties": { "name": "Denmark", "eur": 45572712.46 }, "geometry": { "type": "Point", "coordinates": [ 10.042211774911133, 55.974982170994785 ] } },
{ "type": "Feature", "properties": { "name": "Egypt", "eur": 108347.0 }, "geometry": { "type": "Point", "coordinates": [ 29.878269665945943, 26.45980290344982 ] } },
{ "type": "Feature", "properties": { "name": "Spain", "eur": 152712144.84 }, "geometry": { "type": "Point", "coordinates": [ -3.70353625253198, 40.207653984015394 ] } },
{ "type": "Feature", "properties": { "name": "Estonia", "eur": 17548403.28 }, "geometry": { "type": "Point", "coordinates": [ 25.54503287734331, 58.67290242493732 ] } },
{ "type": "Feature", "properties": { "name": "Finland", "eur": 36714961.49 }, "geometry": { "type": "Point", "coordinates": [ 26.194973097453786, 64.255136000027676 ] } },
{ "type": "Feature", "properties": { "name": "United Kingdom", "eur": 3628390.73 }, "geometry": { "type": "Point", "coordinates": [ -2.758142056330543, 54.011649746128718 ] } },
{ "type": "Feature", "properties": { "name": "Georgia", "eur": 750714.26 }, "geometry": { "type": "Point", "coordinates": [ 43.524256026628237, 42.172941984875564 ] } },
{ "type": "Feature", "properties": { "name": "Greece", "eur": 120117400.82 }, "geometry": { "type": "Point", "coordinates": [ 22.964285442306391, 39.047959603655976 ] } },
{ "type": "Feature", "properties": { "name": "Croatia", "eur": 14929524.97 }, "geometry": { "type": "Point", "coordinates": [ 16.401052928100896, 45.075892769484717 ] } },
{ "type": "Feature", "properties": { "name": "Hungary", "eur": 15695510.53 }, "geometry": { "type": "Point", "coordinates": [ 19.379267765675568, 47.165912511136803 ] } },
{ "type": "Feature", "properties": { "name": "Ireland", "eur": 1763634.73 }, "geometry": { "type": "Point", "coordinates": [ -8.145718336207656, 53.162533076479015 ] } },
{ "type": "Feature", "properties": { "name": "Iraq", "eur": 1617200.0 }, "geometry": { "type": "Point", "coordinates": [ 43.773676100399115, 33.009666402451252 ] } },
{ "type": "Feature", "properties": { "name": "Iceland", "eur": 49800686.51 }, "geometry": { "type": "Point", "coordinates": [ -18.580033661634047, 64.997884127692885 ] } },
{ "type": "Feature", "properties": { "name": "Italy", "eur": 244884910.16 }, "geometry": { "type": "Point", "coordinates": [ 12.201049060548991, 42.715684228285738 ] } },
{ "type": "Feature", "properties": { "name": "Kosovo", "eur": 330887.68 }, "geometry": { "type": "Point", "coordinates": [ 20.872603012805087, 42.570199257007125 ] } },
{ "type": "Feature", "properties": { "name": "Lithuania", "eur": 27599227.13 }, "geometry": { "type": "Point", "coordinates": [ 23.897099877574909, 55.323770061984895 ] } },
{ "type": "Feature", "properties": { "name": "Luxembourg", "eur": 37248868.18 }, "geometry": { "type": "Point", "coordinates": [ 6.072158164769228, 49.766782371671752 ] } },
{ "type": "Feature", "properties": { "name": "Latvia", "eur": 71616955.15000001 }, "geometry": { "type": "Point", "coordinates": [ 24.920447008391982, 56.859521645784241 ] } },
{ "type": "Feature", "properties": { "name": "Moldova", "eur": 1469981.0 }, "geometry": { "type": "Point", "coordinates": [ 28.465619168033424, 47.187172836701414 ] } },
{ "type": "Feature", "properties": { "name": "Malta", "eur": 15413475.51 }, "geometry": { "type": "Point", "coordinates": [ 14.405376786770125, 35.921472122671595 ] } },
{ "type": "Feature", "properties": { "name": "Montenegro", "eur": 350761.14 }, "geometry": { "type": "Point", "coordinates": [ 19.238630666900214, 42.788003311182301 ] } },
{ "type": "Feature", "properties": { "name": "Nigeria", "eur": 20774.0 }, "geometry": { "type": "Point", "coordinates": [ 8.07958685423837, 9.590945570096215 ] } },
{ "type": "Feature", "properties": { "name": "Netherlands", "eur": 85996911.71 }, "geometry": { "type": "Point", "coordinates": [ 4.991547530978123, 52.226920865821349 ] } },
{ "type": "Feature", "properties": { "name": "Norway", "eur": 41304440.48 }, "geometry": { "type": "Point", "coordinates": [ 12.745896580246125, 66.360322897692285 ] } },
{ "type": "Feature", "properties": { "name": "Pakistan", "eur": 303960.0 }, "geometry": { "type": "Point", "coordinates": [ 69.168439552713352, 29.883945354228459 ] } },
{ "type": "Feature", "properties": { "name": "Poland", "eur": 43330244.66 }, "geometry": { "type": "Point", "coordinates": [ 19.419706287902876, 52.111835612143992 ] } },
{ "type": "Feature", "properties": { "name": "Portugal", "eur": 96419182.99 }, "geometry": { "type": "Point", "coordinates": [ -8.528130281259426, 39.606210308113248 ] } },
{ "type": "Feature", "properties": { "name": "Romania", "eur": 61782278.85 }, "geometry": { "type": "Point", "coordinates": [ 24.983181796396863, 45.848413983660407 ] } },
{ "type": "Feature", "properties": { "name": "Serbia", "eur": 1615269.11 }, "geometry": { "type": "Point", "coordinates": [ 20.806606289063065, 44.211319830808314 ] } },
{ "type": "Feature", "properties": { "name": "Slovakia", "eur": 10544395.06 }, "geometry": { "type": "Point", "coordinates": [ 19.468971774212562, 48.711280810901265 ] } },
{ "type": "Feature", "properties": { "name": "Slovenia", "eur": 8528240.77 }, "geometry": { "type": "Point", "coordinates": [ 14.800523261488326, 46.11589047659146 ] } },
{ "type": "Feature", "properties": { "name": "Sweden", "eur": 59834783.86 }, "geometry": { "type": "Point", "coordinates": [ 16.266950180562045, 62.383656074243007 ] } },
{ "type": "Feature", "properties": { "name": "Turkey", "eur": 260129.94 }, "geometry": { "type": "Point", "coordinates": [ 35.1728012164006, 39.137013310437958 ] } },
{ "type": "Feature", "properties": { "name": "Ukraine", "eur": 1211294.42 }, "geometry": { "type": "Point", "coordinates": [ 31.462675506751641, 49.021833721076462 ] } },
{ "type": "Feature", "properties": { "name": "France", "eur": 81676161.16 }, "geometry": { "type": "Point", "coordinates": [ 2.460962909738357, 46.572293581812673 ] } },
{ "type": "Feature", "properties": { "name": "North Macedonia", "eur": 432698.12 }, "geometry": null }
]
}
